{"class":"VERSION","release":"3.22","rev":"3.22","proto_major":3,"proto_minor":14}
{"class":"DEVICES","devices":[{"class":"DEVICE","path":"/dev/ttyS0","driver":"u-blox","subtype":"SW 1.00 (59842),HW 00070000","subtype1":"PROTVER 14.00,GPS;SBAS;GLO;QZSS","activated":"2024-03-23T20:19:42.438Z","flags":1,"native":1,"bps":9600,"parity":"N","stopbits":1,"cycle":1.00,"mincycle":0.02}]}
{"class":"WATCH","enable":true,"json":false,"nmea":true,"raw":0,"scaled":false,"timing":false,"split24":false,"pps":false}
$GPZDA,203154.00,23,03,2024,00,00*61
$GPGGA,203154.00,0716.4926,S,11247.8785,E,1,09,,9.68,M,22.420,M,,*6C
$GPRMC,203154.00,A,0716.4926,S,11247.8785,E,0.7544,136.128,230324,0.8,E*7F
$GPGSA,A,3,10,18,23,25,26,28,29,31,32,,,,,,*14
$GPGSV,5,1,17,10,82,006,32,16,32,215,00,18,19,154,20,23,55,141,22*71
$GPGSV,5,2,17,25,14,033,16,26,65,240,31,27,11,216,00,28,23,341,21*70
$GPGSV,5,3,17,29,20,097,16,31,27,309,24,32,24,015,08,40,24,275,00*7B
$GPGSV,5,4,17,42,57,076,00,50,71,063,00,194,47,054,25,195,41,146,20*7D
$GPGSV,5,5,17,196,63,043,30*70
$GPZDA,203155.00,23,03,2024,00,00*60
$GPGGA,203155.00,0716.4926,S,11247.8785,E,1,09,1.19,9.68,M,22.420,M,,*7A
$GPRMC,203155.00,A,0716.4926,S,11247.8785,E,0.7544,136.128,230324,0.8,E*7E
$GPGSA,A,3,10,18,23,26,28,31,,,,,,,1.9,1.2,1.5*38
$GPGBS,203155.00,14.340,10.595,33.967,,,,*73
$GPGSV,5,1,17,10,82,006,34,16,32,215,00,18,19,154,20,23,55,141,22*77
$GPGSV,5,2,17,25,14,033,16,26,65,240,30,27,11,216,00,28,23,341,20*70
$GPGSV,5,3,17,29,20,097,18,31,27,309,27,32,24,015,12,40,24,275,00*7D
$GPGSV,5,4,17,42,57,076,00,50,71,063,00,194,47,054,26,195,41,146,20*7E
$GPGSV,5,5,17,196,63,043,31*71
$GPZDA,203156.00,23,03,2024,00,00*63
$GPGGA,203156.00,0716.4926,S,11247.8785,E,1,11,1.19,9.68,M,22.420,M,,*70
$GPRMC,203156.00,A,0716.4926,S,11247.8785,E,0.7544,136.128,230324,0.8,E*7D
$GPGSA,A,3,10,18,23,26,28,31,,,,,,,1.9,1.2,1.5*38
$GPGBS,203156.00,14.340,10.595,33.967,,,,*70
$GPGSV,5,1,17,10,82,006,34,16,32,215,00,18,19,154,22,23,55,141,21*76
$GPGSV,5,2,17,25,14,033,18,26,65,240,31,27,11,216,00,28,23,341,19*75
$GPGSV,5,3,17,29,20,097,19,31,27,309,28,32,24,015,11,40,24,275,00*70
$GPGSV,5,4,17,42,57,076,00,50,71,063,00,194,47,054,26,195,41,146,19*74
$GPGSV,5,5,17,196,63,043,30*70
$GPZDA,203157.00,23,03,2024,00,00*62
$GPGGA,203157.00,0716.4926,S,11247.8785,E,1,11,0.94,9.68,M,22.420,M,,*75
$GPRMC,203157.00,A,0716.4926,S,11247.8785,E,0.7544,136.128,230324,0.8,E*7C
$GPGSA,A,3,10,18,23,25,26,28,29,31,,,,,1.6,0.9,1.2*36
$GPGBS,203157.00,10.822,9.002,33.967,,,,*49
$GPGSV,5,1,17,10,82,006,34,16,32,215,00,18,19,154,23,23,55,141,20*76
$GPGSV,5,2,17,25,14,033,19,26,65,240,31,27,11,216,00,28,23,341,18*75
$GPGSV,5,3,17,29,20,097,19,31,27,309,28,32,24,015,08,40,24,275,00*78
$GPGSV,5,4,17,42,57,076,00,50,71,063,00,194,47,054,27,195,41,146,20*7F
$GPGSV,5,5,17,196,63,043,31*71
$GPZDA,203158.00,23,03,2024,00,00*6D
$GPGGA,203158.00,0716.4926,S,11247.8785,E,1,11,0.94,9.68,M,22.420,M,,*7A
$GPRMC,203158.00,A,0716.4926,S,11247.8785,E,0.7544,136.128,230324,0.8,E*73
$GPGSA,A,3,10,18,23,25,26,28,29,31,,,,,1.6,0.9,1.2*36
$GPGBS,203158.00,10.822,9.002,33.967,,,,*46
$GPGSV,5,1,17,10,82,006,34,16,32,215,00,18,19,154,24,23,55,141,17*75
$GPGSV,5,2,17,25,14,033,20,26,65,240,31,27,11,216,00,28,23,341,17*70
$GPGSV,5,3,17,29,20,097,19,31,27,309,29,32,24,015,08,40,24,275,00*79
$GPGSV,5,4,17,42,57,076,00,50,71,063,00,194,47,054,26,195,41,146,19*74
$GPGSV,5,5,17,196,63,043,31*71
$GPZDA,203159.00,23,03,2024,00,00*6C
$GPGGA,203159.00,0716.4926,S,11247.8785,E,1,11,0.94,9.68,M,22.420,M,,*7B
$GPRMC,203159.00,A,0716.4926,S,11247.8785,E,0.7544,136.128,230324,0.8,E*72
$GPGSA,A,3,10,18,23,25,26,28,29,31,,,,,1.6,0.9,1.2*36
$GPGBS,203159.00,10.822,9.002,33.967,,,,*47
$GPGSV,5,1,17,10,82,006,33,16,32,215,00,18,19,154,23,23,55,141,15*77
$GPGSV,5,2,17,25,14,033,20,26,65,240,31,27,11,216,19,28,23,341,17*78
$GPGSV,5,3,17,29,20,097,19,31,27,309,29,32,24,015,07,40,24,275,00*76
$GPGSV,5,4,17,42,57,076,00,50,71,063,00,194,47,054,26,195,41,146,19*74
$GPGSV,5,5,17,196,63,043,31*71
$GPZDA,203200.00,23,03,2024,00,00*63
$GPGGA,203200.00,0716.4926,S,11247.8785,E,1,11,0.94,9.68,M,22.420,M,,*74
$GPRMC,203200.00,A,0716.4926,S,11247.8785,E,0.7544,136.128,230324,0.8,E*7D
$GPGSA,A,3,10,18,23,25,26,28,29,31,,,,,1.6,0.9,1.2*36
$GPGBS,203200.00,10.822,9.002,33.967,,,,*48
$GPGSV,5,1,17,10,82,006,33,16,32,215,00,18,19,154,23,23,55,141,14*76
$GPGSV,5,2,17,25,14,033,18,26,65,240,32,27,11,216,18,28,23,341,18*7E
$GPGSV,5,3,17,29,20,097,19,31,27,309,29,32,24,015,07,40,24,275,00*76
$GPGSV,5,4,17,42,57,076,00,50,71,063,00,194,47,054,26,195,41,146,20*7E
$GPGSV,5,5,17,196,63,043,31*71
$GPZDA,203201.00,23,03,2024,00,00*62
$GPGGA,203201.00,0716.4926,S,11247.8785,E,1,11,0.94,9.68,M,22.420,M,,*75
$GPRMC,203201.00,A,0716.4926,S,11247.8785,E,0.7544,136.128,230324,0.8,E*7C
$GPGSA,A,3,10,18,23,25,26,28,29,31,,,,,1.6,0.9,1.2*36
$GPGBS,203201.00,10.822,9.002,33.967,,,,*49
$GPGSV,5,1,17,10,82,006,33,16,32,215,00,18,19,154,23,23,55,141,15*77
$GPGSV,5,2,17,25,14,033,17,26,65,240,32,27,11,216,17,28,23,341,18*7E
$GPGSV,5,3,17,29,20,097,19,31,27,309,29,32,24,015,07,40,24,275,00*76
$GPGSV,5,4,17,42,57,076,00,50,71,063,00,194,47,054,26,195,41,146,19*74
$GPGSV,5,5,17,196,63,043,30*70
$GPZDA,203202.00,23,03,2024,00,00*61
$GPGGA,203202.00,0716.4926,S,11247.8785,E,1,11,0.94,9.68,M,22.420,M,,*76
$GPRMC,203202.00,A,0716.4926,S,11247.8785,E,0.7544,136.128,230324,0.8,E*7F
$GPGSA,A,3,10,18,23,25,26,28,29,31,,,,,1.6,0.9,1.2*36
$GPGBS,203202.00,10.822,9.002,33.967,,,,*4A
$GPGSV,5,1,17,10,82,006,33,16,32,215,00,18,19,154,23,23,55,141,21*70
$GPGSV,5,2,17,25,14,033,19,26,65,240,31,27,11,216,17,28,23,341,17*7C
$GPGSV,5,3,17,29,20,097,19,31,27,309,27,32,24,015,13,40,24,275,00*7D
$GPGSV,5,4,17,42,57,076,00,50,71,063,00,194,47,054,26,195,41,146,19*74
$GPGSV,5,5,17,196,63,043,30*70
$GPZDA,203203.00,23,03,2024,00,00*60
$GPGGA,203203.00,0716.4926,S,11247.8785,E,1,11,0.94,9.68,M,22.420,M,,*77
$GPRMC,203203.00,A,0716.4926,S,11247.8785,E,0.7544,136.128,230324,0.8,E*7E
$GPGSA,A,3,10,18,23,25,26,28,29,31,,,,,1.6,0.9,1.2*36
$GPGBS,203203.00,10.822,9.002,33.967,,,,*4B
$GPGSV,5,1,17,10,82,006,33,16,32,215,00,18,19,154,22,23,55,141,22*72
$GPGSV,5,2,17,25,14,033,19,26,65,240,31,27,11,216,16,28,23,341,19*73
$GPGSV,5,3,17,29,20,097,19,31,27,309,25,32,24,015,07,40,24,275,00*7A
