{"class":"VERSION","release":"3.22","rev":"3.22","proto_major":3,"proto_minor":14}
{"class":"DEVICES","devices":[{"class":"DEVICE","path":"/dev/ttyS0","driver":"u-blox","subtype":"SW 1.00 (59842),HW 00070000","subtype1":"PROTVER 14.00,GPS;SBAS;GLO;QZSS","activated":"2024-03-23T19:50:39.346Z","flags":1,"native":1,"bps":9600,"parity":"N","stopbits":1,"cycle":1.00,"mincycle":0.02}]}
{"class":"WATCH","enable":true,"json":false,"nmea":true,"raw":0,"scaled":false,"timing":false,"split24":false,"pps":false}
$GPZDA,200251.00,23,03,2024,00,00*64
$GPGGA,200251.00,0716.5438,S,11247.5864,E,2,09,1.11,15.99,M,17.400,M,,*4C
$GPRMC,200251.00,A,0716.5438,S,11247.5864,E,0.0525,249.297,230324,0.8,E*78
$GPGSA,A,3,10,23,25,26,28,29,,,,,,,2.1,1.1,1.8*3A
$GPGBS,200251.00,3.224,2.781,5.623,,,,*4C
$GPGSV,5,1,17,15,01,113,20,16,20,213,00,18,27,163,25,23,66,119,38*76
$GPGSV,5,2,17,25,26,037,24,26,54,221,33,27,05,226,00,28,30,329,30*79
$GPGSV,5,3,17,29,21,111,26,31,31,294,00,32,18,004,23,40,24,275,00*74
$GPGSV,5,4,17,42,57,076,00,50,71,063,32,194,48,061,17,195,43,149,36*7E
$GPGSV,5,5,17,196,59,039,32*76
$GPZDA,200252.00,23,03,2024,00,00*67
$GPGGA,200252.00,0716.5438,S,11247.5864,E,2,09,1.11,15.99,M,17.400,M,,*4F
$GPRMC,200252.00,A,0716.5438,S,11247.5864,E,0.0525,249.297,230324,0.8,E*7B
$GPGSA,A,3,10,23,25,26,28,29,,,,,,,2.1,1.1,1.8*3A
$GPGBS,200252.00,3.224,2.781,5.623,,,,*4F
$GPGSV,5,1,17,15,01,113,00,16,20,213,00,18,27,163,26,23,66,119,39*76
$GPGSV,5,2,17,25,26,037,25,26,54,221,34,27,05,226,00,28,30,329,31*7E
$GPGSV,5,3,17,29,21,111,27,31,31,294,12,32,18,004,24,40,24,275,00*71
$GPGSV,5,4,17,42,57,076,00,50,71,063,34,194,48,061,18,195,43,149,37*76
$GPGSV,5,5,17,196,59,039,33*77
$GPZDA,200253.00,23,03,2024,00,00*66
$GPGGA,200253.00,0716.5438,S,11247.5864,E,2,09,1.11,15.99,M,17.400,M,,*4E
$GPRMC,200253.00,A,0716.5438,S,11247.5864,E,0.0525,249.297,230324,0.8,E*7A
$GPGSA,A,3,10,23,25,26,28,29,,,,,,,2.1,1.1,1.8*3A
$GPGBS,200253.00,3.224,2.781,5.623,,,,*4E
$GPGSV,5,1,17,15,01,113,20,16,20,213,00,18,27,163,26,23,66,119,40*7A
$GPGSV,5,2,17,25,26,037,26,26,54,221,35,27,05,226,00,28,30,329,31*7C
$GPGSV,5,3,17,29,21,111,27,31,31,294,14,32,18,004,24,40,24,275,00*77
$GPGSV,5,4,17,42,57,076,00,50,71,063,34,194,48,061,19,195,43,149,37*77
$GPGSV,5,5,17,196,59,039,33*77
$GPZDA,200254.00,23,03,2024,00,00*61
$GPGGA,200254.00,0716.5438,S,11247.5864,E,2,09,1.11,15.99,M,17.400,M,,*49
$GPRMC,200254.00,A,0716.5438,S,11247.5864,E,0.0525,249.297,230324,0.8,E*7D
$GPGSA,A,3,10,23,25,26,28,29,,,,,,,2.1,1.1,1.8*3A
$GPGBS,200254.00,3.224,2.781,5.623,,,,*49
$GPGSV,5,1,17,15,01,113,20,16,20,213,00,18,27,163,26,23,66,119,40*7A
$GPGSV,5,2,17,25,26,037,26,26,54,221,34,27,05,226,00,28,30,329,30*7C
$GPGSV,5,3,17,29,21,111,27,31,31,294,18,32,18,004,23,40,24,275,00*7C
$GPGSV,5,4,17,42,57,076,00,50,71,063,33,194,48,061,19,195,43,149,37*70
$GPGSV,5,5,17,196,59,039,33*77
$GPZDA,200255.00,23,03,2024,00,00*60
$GPGGA,200255.00,0716.5438,S,11247.5864,E,2,10,1.11,15.99,M,17.400,M,,*40
$GPRMC,200255.00,A,0716.5438,S,11247.5864,E,0.0525,249.297,230324,0.8,E*7C
$GPGSA,A,3,10,23,25,26,28,29,,,,,,,2.1,1.1,1.8*3A
$GPGBS,200255.00,3.224,2.781,5.623,,,,*48
$GPGSV,5,1,17,15,01,113,00,16,20,213,00,18,27,163,26,23,66,119,40*78
$GPGSV,5,2,17,25,26,037,27,26,54,221,34,27,05,226,00,28,30,329,30*7D
$GPGSV,5,3,17,29,21,111,27,31,31,294,20,32,18,004,23,40,24,275,00*77
$GPGSV,5,4,17,42,57,076,00,50,71,063,33,194,48,061,19,195,43,149,36*71
$GPGSV,5,5,17,196,59,039,33*77
$GPZDA,200256.00,23,03,2024,00,00*63
$GPGGA,200256.00,0716.5438,S,11247.5864,E,2,10,0.96,15.99,M,17.400,M,,*4D
$GPRMC,200256.00,A,0716.5438,S,11247.5864,E,0.0525,249.297,230324,0.8,E*7F
$GPGSA,A,3,10,23,25,26,28,29,31,,,,,,1.9,1.0,1.6*3C
$GPGBS,200256.00,2.435,2.778,5.623,,,,*4A
$GPGSV,5,1,17,15,01,113,21,16,20,213,00,18,27,163,26,23,66,120,39*7F
$GPGSV,5,2,17,25,26,037,26,26,54,221,33,27,05,226,00,28,30,329,30*7B
$GPGSV,5,3,17,29,21,111,28,31,31,294,23,32,18,004,23,40,24,275,00*7B
$GPGSV,5,4,17,42,57,076,00,50,71,063,33,194,48,061,19,195,43,149,36*71
$GPGSV,5,5,17,196,59,039,33*77
$GPZDA,200257.00,23,03,2024,00,00*62
$GPGGA,200257.00,0716.5438,S,11247.5864,E,2,10,0.96,15.99,M,17.400,M,,*4C
$GPRMC,200257.00,A,0716.5438,S,11247.5864,E,0.0525,249.297,230324,0.8,E*7E
$GPGSA,A,3,10,23,25,26,28,29,31,,,,,,1.9,1.0,1.6*3C
$GPGBS,200257.00,2.436,2.778,5.623,,,,*48
$GPGSV,5,1,17,15,01,113,21,16,20,213,00,18,27,163,26,23,66,120,39*7F
$GPGSV,5,2,17,25,26,037,26,26,54,221,33,27,05,226,00,28,30,329,29*73
$GPGSV,5,3,17,29,21,111,28,31,31,294,25,32,18,004,23,40,24,275,00*7D
$GPGSV,5,4,17,42,57,076,00,50,71,063,33,194,48,061,18,195,43,149,36*70
$GPGSV,5,5,17,196,59,039,33*77
$GPZDA,200258.00,23,03,2024,00,00*6D
$GPGGA,200258.00,0716.5438,S,11247.5864,E,2,10,0.96,15.99,M,17.400,M,,*43
$GPRMC,200258.00,A,0716.5438,S,11247.5864,E,0.0525,249.297,230324,0.8,E*71
$GPGSA,A,3,10,23,25,26,28,29,31,,,,,,1.9,1.0,1.6*3C
$GPGBS,200258.00,2.436,2.778,5.623,,,,*47
$GPGSV,5,1,17,15,01,113,19,16,20,213,00,18,27,163,26,23,66,120,39*74
$GPGSV,5,2,17,25,25,037,26,26,54,221,33,27,05,226,00,28,30,329,28*71
$GPGSV,5,3,17,29,21,111,28,31,31,294,25,32,18,004,23,40,24,275,00*7D
$GPGSV,5,4,17,42,57,076,00,50,71,063,33,194,48,061,20,195,43,149,36*7B
$GPGSV,5,5,17,196,59,039,33*77
$GPZDA,200259.00,23,03,2024,00,00*6C
$GPGGA,200259.00,0716.5438,S,11247.5864,E,2,10,0.96,15.99,M,17.400,M,,*42
$GPRMC,200259.00,A,0716.5438,S,11247.5864,E,0.0525,249.297,230324,0.8,E*70
$GPGSA,A,3,10,23,25,26,28,29,31,,,,,,1.9,1.0,1.6*3C
$GPGBS,200259.00,2.435,2.782,5.623,,,,*40
$GPGSV,5,1,17,15,01,113,00,16,20,213,00,18,27,163,25,23,66,120,38*7E
$GPGSV,5,2,17,25,25,037,25,26,54,221,32,27,05,226,00,28,30,329,28*73
$GPGSV,5,3,17,29,21,111,28,31,31,294,25,32,18,004,21,40,24,275,00*7F
$GPGSV,5,4,17,42,57,076,00,50,71,063,32,194,48,061,19,195,43,149,36*70
$GPGSV,5,5,17,196,59,039,33*77
$GPZDA,200300.00,23,03,2024,00,00*61
$GPGGA,200300.00,0716.5438,S,11247.5864,E,2,10,0.96,15.99,M,17.400,M,,*4F
$GPRMC,200300.00,A,0716.5438,S,11247.5864,E,0.0525,249.297,230324,0.8,E*7D
$GPGSA,A,3,10,23,25,26,28,29,31,,,,,,1.9,1.0,1.6*3C
$GPGBS,200300.00,2.435,2.782,5.623,,,,*4D
$GPGSV,5,1,17,15,01,113,00,16,20,213,00,18,27,163,24,23,66,120,39*7E
$GPGSV,5,2,17,25,25,037,25,26,54,221,31,27,05,225,00,28,30,329,28*73
